City_ID,City,Country,Max Temp,Current Description,Lat,Lng,Hotel Name
0,Carnarvon,AU,78.53,scattered clouds,-24.8667,113.6333,Hospitality Carnarvon
1,Ushuaia,AR,47.82,broken clouds,-54.8,-68.3,Albatross Hotel
2,Faanui,PF,80.76,light rain,-16.4833,-151.75,Bora-Bora Pearl Beach Resort & Spa
5,Bluff,NZ,53.8,light rain,-46.6,168.3333,Bluff Homestead - Guesthouse & Campervan Park
6,Sulangan,PH,80.06,overcast clouds,11.1373,123.7228,Maia's Beach Resort
7,Avera,US,75.07,overcast clouds,33.194,-82.5271,
8,Dubai,AE,73.22,clear sky,25.2582,55.3047,"Radisson Blu Hotel, Dubai Deira Creek"
9,Kodiak,US,40.51,mist,57.79,-152.4072,Best Western Kodiak Inn And Convention Center
10,Cayenne,GF,78.84,light rain,4.9333,-52.3333,Hôtel Le Dronmi
11,Mogadishu,SO,77.23,scattered clouds,2.0371,45.3438,Hotel Juba
13,Atuona,PF,78.46,clear sky,-9.8,-139.0333,Villa Enata
14,Watsa,CD,68.83,overcast clouds,3.0372,29.5355,Hôtel Le Pacifique
15,Kaitangata,NZ,48.92,light rain,-46.2817,169.8464,Kaitangata Motor Camp
16,Port Alfred,ZA,70.56,broken clouds,-33.5906,26.891,The Halyards Hotel
17,Kapaa,US,78.78,scattered clouds,22.0752,-159.319,Sheraton Kauai Coconut Beach Resort
18,Punta Arenas,CL,50.02,clear sky,-53.15,-70.9167,Hotel Hain
21,Bredasdorp,ZA,63.28,few clouds,-34.5322,20.0403,Bredasdorp Country Manor
22,Albany,US,41.18,moderate rain,42.6001,-73.9662,
23,Hermanus,ZA,63.81,scattered clouds,-34.4187,19.2345,Misty Waves Boutique Hotel
24,Broken Hill,AU,59.02,clear sky,-31.95,141.4333,Royal Exchange Hotel
26,Rikitea,PF,77.52,light rain,-23.1203,-134.9692,People ThankYou
27,Mahebourg,MU,80.26,light rain,-20.4081,57.7,Shandrani Beachcomber Resort & Spa
30,Chuy,UY,76.71,overcast clouds,-33.6971,-53.4616,Nuevo Hotel Plaza
32,Kavaratti,IN,78.82,clear sky,10.5669,72.642,Hotels in Lakshadweep Islands
34,Paraiso,CR,79.16,scattered clouds,9.8383,-83.8656,Hotel Rinconcito Verde
35,Cidreira,BR,76.71,broken clouds,-30.1811,-50.2056,Hotel Castelo
36,Cape Town,ZA,64.89,few clouds,-33.9258,18.4232,Southern Sun Waterfront Cape Town
40,Amalapuram,IN,67.84,scattered clouds,16.5833,82.0167,swayamprabha service apartments
41,Hobart,AU,60.12,scattered clouds,-42.8794,147.3294,Mantra on Collins Hobart
42,Katsuura,JP,41.18,overcast clouds,35.1333,140.3,Katsuura Hotel Mikazuki
43,Hilo,US,78.53,scattered clouds,19.7297,-155.09,Hilo Hawaiian Hotel
44,Vaini,TO,86.16,scattered clouds,-21.2,-175.2,Keleti Beach Resort
45,Mahanje,TZ,64.62,light rain,-9.9333,35.3333,
46,Goundi,TD,76.14,broken clouds,9.3627,17.366,
48,Puerto Ayora,EC,84.16,few clouds,-0.7393,-90.3518,Finch Bay Galapagos Hotel
49,Tanout,NE,57.07,clear sky,14.9709,8.8879,
51,Puerto Narino,CO,82.35,overcast clouds,-3.7703,-70.3831,Eware Refugio Amazonico
58,Balabac,PH,79.79,few clouds,7.9868,117.0645,Sing and Swing Lodge
59,Port Hedland,AU,80.65,broken clouds,-20.3167,118.5667,"The Esplanade Hotel (Accommodation section closed for refurbishment - Bar, Restaurant & Functions remain open)"
61,Saint George,US,48.67,clear sky,37.1041,-113.5841,Best Western Plus Abbey Inn
62,Kaoma,ZM,64.45,light rain,-14.7833,24.8,KAOMA AIRPORT
63,San Juan,AR,89.19,few clouds,-31.5375,-68.5364,Hotel Provincial
64,Cockburn Town,TC,75.36,broken clouds,21.4612,-71.1419,Osprey Beach Hotel
66,Pantai Remis,MY,75.79,broken clouds,4.4557,100.6288,Leisure Homestay
68,Saint-Francois,FR,40.68,overcast clouds,46.4154,3.9054,Manoir Du Bonheur
70,Port Elizabeth,ZA,67.1,overcast clouds,-33.918,25.5701,39 On Nile Guest House
71,Laguna,US,64.44,clear sky,38.421,-121.4238,"Holiday Inn Express & Suites Elk Grove Central - Hwy 99, an IHG Hotel"
73,Bethel,US,43.16,light rain,41.3712,-73.414,Courtyard by Marriott Danbury
74,Kununurra,AU,80.58,broken clouds,-15.7667,128.7333,Hotel Kununurra
75,Taoudenni,ML,66.58,broken clouds,22.6783,-3.9836,
77,Skibbereen,IE,46.2,overcast clouds,51.55,-9.2667,The West Cork Hotel
80,Tessalit,ML,62.92,broken clouds,20.1986,1.0114,
81,Castro,BR,68.22,broken clouds,-24.7911,-50.0119,CHACARA BAILLY
83,Mataura,NZ,53.47,light rain,-46.1927,168.8643,Ellie's Villa
84,Bambous Virieux,MU,80.22,light rain,-20.3428,57.7575,Casa Tia Villa
85,Umm Lajj,SA,68.74,clear sky,25.0213,37.2685,Moon light Furnished Units
86,Hithadhoo,MV,81.19,overcast clouds,-0.6,73.0833,Scoop Guest House
88,Cururupu,BR,76.39,overcast clouds,-1.8283,-44.8683,POUSADA TRAVÉS'CIA
89,Kisangani,CD,72.7,overcast clouds,0.5167,25.2,Grand Ramela Hotel
91,Meulaboh,ID,75.09,overcast clouds,4.1363,96.1285,Kost Pria
92,Lebu,CL,62.69,overcast clouds,-37.6167,-73.65,Hostal Las Lilas
94,Chandler,US,59.45,clear sky,33.3062,-111.8412,"Crowne Plaza Hotels & Resorts Phoenix - Chandler Golf Resort, an IHG Hotel"
95,Puro,PH,76.33,overcast clouds,12.4841,123.3827,
96,Airai,TL,60.71,overcast clouds,-8.9266,125.4092,
97,Samana,DO,73.36,overcast clouds,19.2056,-69.3369,The Bannister - Hotel & Yacht Club
98,Taltal,CL,70.25,few clouds,-25.4,-70.4833,Residencial Karime
100,Lorengau,PG,79.39,overcast clouds,-2.0226,147.2712,Lorengau Harbourside Hotel
101,Saint-Philippe,RE,80.15,very heavy rain,-21.3585,55.7679,"Chambres d'hôte ""La Trinité"""
103,Bubaque,GW,77.68,clear sky,11.2833,-15.8333,"Casa Dora, Bubaque"
104,Abu Samrah,SY,47.23,scattered clouds,35.3029,37.1841,
105,Caravelas,BR,77.88,overcast clouds,-17.7125,-39.2481,Pousada dos Navegantes
106,Tuatapere,NZ,53.82,moderate rain,-46.1333,167.6833,Ron and Tony's Bed & Breakfast
107,Nishihara,JP,60.08,broken clouds,26.1842,127.7558,Minshuku Agaihama
108,Caucasia,CO,88.57,broken clouds,7.9865,-75.1935,Hotel San Rafael
109,Marawi,PH,66.65,overcast clouds,7.9986,124.2928,Derogongan Residence
110,Mount Pleasant,US,73.54,clear sky,32.7941,-79.8626,Best Western Patriots Point
111,Arraial Do Cabo,BR,75.52,overcast clouds,-22.9661,-42.0278,Pousada Porto Praia
112,Sur,OM,68.86,clear sky,22.5667,59.5289,Sur Plaza Hotel
113,Isiro,CD,71.58,overcast clouds,2.7739,27.616,Guest House Hewa Bora
115,Ilebo,CD,67.68,overcast clouds,-4.3167,20.5833,Hôtel BUMAK
116,Morondava,MG,80.96,clear sky,-20.2833,44.2833,La Case Bambou
117,Port Blair,IN,73.76,clear sky,11.6667,92.75,"Welcomhotel By ITC Hotels, Bay Island, Port Blair"
121,Mar Del Plata,AR,73.42,scattered clouds,-38.0023,-57.5575,Gran Hotel Mar del Plata
122,Adrar,MR,65.48,clear sky,20.5022,-10.0711,
123,Mlandizi,TZ,75.06,broken clouds,-6.7,38.7333,Amazon Lodge..
125,Lucapa,AO,63.79,overcast clouds,-8.4192,20.7447,Residência Ulisses Dos Santos
126,Busselton,AU,78.04,scattered clouds,-33.65,115.3333,Observatory Guest House
127,Joao Pinheiro,BR,73.33,moderate rain,-17.7425,-46.1725,Hotel Santos
128,Butaritari,KI,81.61,light rain,3.0707,172.7902,Isles Sunset Lodge
129,Cabo San Lucas,MX,73.94,broken clouds,22.8909,-109.9124,Hotel Tesoro Los Cabos
131,Ixtapa,MX,74.43,broken clouds,20.7,-105.2,Hotel Plaza Providencia
132,Kundiawa,PG,64.96,overcast clouds,-6.0167,144.9667,Pari
133,Georgetown,MY,79.9,few clouds,5.4112,100.3354,Cititel Penang
134,Ponta Do Sol,PT,67.01,scattered clouds,32.6667,-17.1,Hotel do Campo
135,Vao,NC,79.43,light rain,-22.6667,167.4833,Hotel Kou-Bugny
137,Buritizeiro,BR,75.29,overcast clouds,-17.3511,-44.9622,Santos Palace Hotel
138,Saint-Pierre,RE,80.24,very heavy rain,-21.3393,55.4781,Lindsey Hôtel
139,Murud,IN,69.1,scattered clouds,18.3258,72.965,On Point Plaza
141,Choma,ZM,64.18,broken clouds,-16.8065,26.9531,Kamuboola Lodge
142,Kruisfontein,ZA,64.89,broken clouds,-34.0033,24.7314,Oyster Bay House Rental
144,Antofagasta,CL,73.22,clear sky,-23.65,-70.4,"Holiday Inn Express Antofagasta, an IHG Hotel"
146,Bilma,NE,57.79,clear sky,18.6853,12.9164,Expeditions Ténére voyages
151,Manga,BF,74.82,clear sky,11.6636,-1.0731,Auberge du 11 décembre de la cité CNSS à Manga
152,Visnes,NO,47.57,broken clouds,59.3556,5.2242,Park Inn Haugesund Airport
153,Avarua,CK,82.45,few clouds,-21.2078,-159.775,Paradise Inn
154,Den Helder,NL,46.38,overcast clouds,52.9599,4.7593,Hotel Den Helder
156,Pafos,CY,51.58,thunderstorm with rain,34.7667,32.4167,Elysium Hotel
157,Acapulco,MX,84.02,few clouds,16.8634,-99.8901,HS Hotsson Smart Acapulco
158,Noumea,NC,78.78,light rain,-22.2763,166.4572,Hôtel Le Lagon
160,Neiafu,TO,81.28,light intensity shower rain,-18.65,-173.9833,Mystic Sands Beachfront Accommodation
161,Viedma,AR,82.22,clear sky,-40.8135,-62.9967,Hotel Cristal
162,Bambanglipuro,ID,61.61,light rain,-7.95,110.2833,Puri Brata
163,Mawlaik,MM,53.55,clear sky,23.6333,94.4167,AKZ Guest House
164,Manono,CD,69.28,moderate rain,-7.3,27.4167,Hotel hewa bora
165,Sabha,LY,50.36,clear sky,27.0377,14.4283,Foundation Taaj Asala for Historical Research and Archeology
166,Salalah,OM,71.69,clear sky,17.0151,54.0924,"HAMDAN PLAZA HOTEL SALALAH, an HTG Hotel"
167,Necochea,AR,72.03,overcast clouds,-38.5473,-58.7368,dyd -mar Hotel
168,Kahului,US,83.46,few clouds,20.8947,-156.47,Maui Seaside Hotel
169,Kutum,SD,61.75,scattered clouds,14.2,24.6667,Dibbo areaمنطقة دبو
170,Hobyo,SO,76.24,scattered clouds,5.3505,48.5268,Halane Hotel and Restaurent
171,San Quintin,MX,60.96,clear sky,30.4833,-115.95,Don Eddie's Landing
172,New Norfolk,AU,59.76,few clouds,-42.7826,147.0587,The Shingles Riverside Cottages
173,Xuddur,SO,76.28,overcast clouds,4.1213,43.8894,Banjanay Hotel
174,Esperance,AU,62.55,clear sky,-33.8667,121.9,Hospitality Esperance
175,Gubin,PL,43.14,overcast clouds,51.9496,14.7284,Hotel Onyx
176,Mount Gambier,AU,59.85,broken clouds,-37.8333,140.7667,The Commodore
177,Nicoya,CR,89.15,clear sky,10.1483,-85.452,Las Cabinas Del Sueño
180,Lazaro Cardenas,MX,80.51,clear sky,17.9583,-102.2,quinta antigua
182,Wollongong,AU,67.8,moderate rain,-34.4333,150.8833,Flinders Motel
183,Valparaiso,CL,71.83,clear sky,-33.0393,-71.6273,Hotel Ultramar
184,Tabas,IR,49.1,overcast clouds,33.5959,56.9244,شرکت معماری مهراز شایگان آراد
185,North Myrtle Beach,US,69.22,mist,33.816,-78.68,Avista Resort
187,Sao Filipe,CV,73.87,clear sky,14.8961,-24.4956,Hotel Xaguate
188,San Juan De Colon,VE,80.19,overcast clouds,8.0313,-72.2605,Hotel San Francisco de Padua C.A
191,Kralendijk,BQ,80.58,scattered clouds,12.15,-68.2667,Divi Flamingo Beach Resort & Casino
193,Tura,IN,59.97,broken clouds,25.5198,90.2201,Hotel RIKMAN Continental
199,Mumford,GH,80.2,clear sky,5.2618,-0.759,Spanish Villa
200,Bengkulu,ID,76.12,overcast clouds,-3.8004,102.2655,Grage Hotel Bengkulu
201,Kudahuvadhoo,MV,80.92,overcast clouds,2.6708,72.8944,Niyama Private Islands Maldives
204,Nobres,BR,79.36,broken clouds,-14.7203,-56.3275,Hotel Portal Nobres
206,Sattahip,TH,77.18,few clouds,12.6664,100.9007,Pob Choke Residences ( พบโชคเรดซิเด้นท์ )
207,Chake Chake,TZ,79.2,overcast clouds,-5.2459,39.7666,Hotel Archipelago
208,Arlit,NE,58.62,clear sky,18.7369,7.3853,Case de Passage De la Prefecture
209,Merauke,ID,80.55,overcast clouds,-8.4667,140.3333,
211,Loralai,PK,40.59,clear sky,30.3705,68.598,Saddam Hotel & Resturant
212,Mount Isa,AU,73.17,overcast clouds,-20.7333,139.5,ibis Styles Mt Isa Verona
214,Springbok,ZA,65.59,clear sky,-29.6643,17.8865,Undulata Country Lodge
215,Bonthe,SL,77.86,clear sky,7.5264,-12.505,Bonthe Holiday Village
217,Kokoda,PG,79.95,overcast clouds,-8.8785,147.7407,Daito Guest House
220,Northam,GB,51.03,overcast clouds,51.0333,-4.2167,Durrant House Hotel
221,Malgrat De Mar,ES,57.06,overcast clouds,41.6466,2.7414,AQUA Hotel Aquamarina & Spa
222,Sola,VU,76.89,moderate rain,-13.8833,167.55,Leumerus Bungalows
225,Boyolangu,ID,75.72,moderate rain,-8.1181,111.8935,Yos ega cv
227,Holme,DK,44.17,overcast clouds,56.1138,10.1725,Hotel Ritz Aarhus City
229,Chiang Klang,TH,65.16,clear sky,19.2938,100.8617,Sangthong Resort
230,Gachala,CO,76.75,overcast clouds,4.6924,-73.5204,CABAÑAS EL JAZMIN
231,Jizan,SA,80.37,broken clouds,17.3333,42.6667,شهدان. ابوالحجر
233,Kashan,IR,48.52,overcast clouds,33.9831,51.4364,Manouchehri Traditional House
235,Coquimbo,CL,67.73,clear sky,-29.9533,-71.3436,Hostel Del Puerto
236,Bandarbeyla,SO,74.16,clear sky,9.4942,50.8122,JABIR HOTEL
237,Coahuayana,MX,87.28,clear sky,18.7333,-103.6833,El rranchito michuacan de ocampos
240,Carbonia,IT,49.01,scattered clouds,39.1672,8.5222,Lu 'Hotel
241,Ormara,PK,68.0,clear sky,25.2088,64.6357,Crystal Beach and Camping Resort Ormara
243,Vila Velha,BR,77.95,broken clouds,-20.3297,-40.2925,Quality Suites Vila Velha
244,Geraldton,AU,83.12,clear sky,-28.7667,114.6,Broadwater Mariner Resort
245,Najran,SA,61.02,few clouds,17.4924,44.1277,محمد هادي ال فطيح
248,Brotas,BR,71.19,moderate rain,-22.2842,-48.1267,Site Water Wheel
249,Ambon,ID,77.14,moderate rain,-3.6954,128.1814,Swiss-Belhotel Ambon
250,Pontianak,ID,76.98,mist,-0.0333,109.3333,Aston Pontianak Hotel & Convention Center
251,Ribeira Grande,PT,58.77,overcast clouds,38.5167,-28.7,Quinta da Meia Eira
253,Chhatak,BD,61.9,broken clouds,25.0333,91.6667,Hotel Sadi Internationl
255,Sabang,ID,81.7,scattered clouds,5.8933,95.3214,Hotel Citra
256,Flic En Flac,MU,80.53,moderate rain,-20.2742,57.3631,Hilton Mauritius Resort & Spa
257,Brigantine,US,48.4,overcast clouds,39.4101,-74.3646,Legacy Vacation Resorts - Brigantine Beach
259,Dingle,PH,74.3,overcast clouds,10.9995,122.6711,SEGAYA PROPERTY
261,Porgera,PG,44.28,overcast clouds,-5.4667,143.2,
262,Sinnamary,GF,76.64,broken clouds,5.3833,-52.95,ALETHEIA Appartement Sinnamary
263,Bukama,CD,68.94,light rain,-9.2,25.85,
264,Belawan,ID,77.29,heavy intensity rain,3.7755,98.6832,Rumah Mamak Bapak M.Radial
265,Kampene,CD,67.05,overcast clouds,-3.6,26.6667,
266,West Bay,KY,81.07,clear sky,19.3667,-81.4167,Calypso Cove
269,Labuhan,ID,76.14,overcast clouds,-6.8844,112.2051,DoubleFAG
270,Jalu,LY,54.05,scattered clouds,29.0331,21.5482,صاحبة الفخامة
271,Kelo,TD,72.91,scattered clouds,9.3086,15.8066,Plantation de Kelo
272,Hervey Bay,AU,76.03,overcast clouds,-25.2986,152.8535,Shelly Bay Resort
273,Port Lincoln,AU,63.64,broken clouds,-34.7333,135.8667,Port Lincoln Hotel
274,Linhares,BR,75.11,overcast clouds,-19.3911,-40.0722,Hotel Conceição
275,Naze,JP,54.52,overcast clouds,28.3667,129.4833,Shishime Hotel
276,East London,ZA,71.15,light rain,-33.0153,27.9116,Tu Casa
277,Vila Franca Do Campo,PT,61.2,scattered clouds,37.7167,-25.4333,Pestana Bahia Praia
278,Bandar-E Lengeh,IR,67.82,clear sky,26.5579,54.8807,کافی نت پارس
279,Iquitos,PE,78.84,broken clouds,-3.7481,-73.2472,Casa Morey Hotel & Restaurant
280,Pisco,PE,73.45,clear sky,-13.7,-76.2167,Hotel San Isidro Oficial
281,Saldanha,ZA,63.12,clear sky,-33.0117,17.9442,Blue Bay Lodge
283,Guerrero Negro,MX,64.06,clear sky,27.9769,-114.0611,"Casa Laguna, Bed & Breakfast"
286,Corrente,BR,78.24,overcast clouds,-3.7367,-43.3394,Chapadinhense Hotel
287,Tambun,ID,75.09,overcast clouds,-6.2641,107.0712,Metland Hotel Bekasi
288,Birin,NP,45.63,light rain,26.8865,88.0718,Sangam hotel and lodge
289,Gazanjyk,TM,48.99,overcast clouds,39.2446,55.5154,Railway motel
292,Mon,IN,48.76,scattered clouds,26.75,95.1,NCK Cottage
293,Vung Tau,VN,76.42,few clouds,10.346,107.0843,Green hotel
294,Awbari,LY,49.46,clear sky,26.5921,12.7805,فندق أوباري
296,Mabaruma,GY,74.44,scattered clouds,8.2,-59.7833,Monty Brooms Guest House
298,Miramar,US,78.03,scattered clouds,25.9873,-80.2323,Casa Miramar
299,Grand Gaube,MU,80.38,overcast clouds,-20.0064,57.6608,Veranda Paul et Virginie Hotel & Spa
300,Kiunga,PG,75.6,broken clouds,-6.1219,141.2906,Airport Lodge Kiunga
302,Tacoronte,ES,67.14,clear sky,28.4769,-16.4102,Casa Laurel
303,Gualeguaychu,AR,74.86,light rain,-33.0094,-58.5172,Hotel Los Angeles
305,Kimberley,ZA,68.54,broken clouds,-28.7323,24.7623,Welgewandel Guesthouse
306,Mecca,SA,72.77,broken clouds,21.4267,39.8261,"Makkah Clock Royal Tower, A Fairmont Hotel"
310,Marsh Harbour,BS,73.56,broken clouds,26.5412,-77.0636,Abaco Beach Resort
312,Lompoc,US,70.11,clear sky,34.6391,-120.4579,"Holiday Inn Express Lompoc, an IHG Hotel"
313,Camopi,GF,72.81,overcast clouds,3.1655,-52.3158,La pousada
314,Lagoa,PT,57.58,overcast clouds,39.05,-27.9833,Casa Das Faias
315,Sorong,ID,79.74,overcast clouds,-0.8833,131.25,Waigo Splash Hotel
317,Bathsheba,BB,79.41,few clouds,13.2167,-59.5167,Atlantis Hotel
318,Dicabisagan,PH,71.91,scattered clouds,17.0818,122.4157,Nancy Montanes Bernardo
321,Shingu,JP,40.91,overcast clouds,33.7333,135.9833,Shingu UI Hotel
323,Richards Bay,ZA,78.76,broken clouds,-28.783,32.0377,BON Hotel Waterfront Richards Bay
325,Dunedin,NZ,50.23,moderate rain,-45.8742,170.5036,Scenic Hotel Southern Cross
326,Oistins,BB,78.89,few clouds,13.0667,-59.5333,Butterfly Beach Hotel
327,Iquique,CL,69.84,few clouds,-20.2208,-70.1431,Backpacker`s Hostel Iquique
328,Palmer,US,44.26,moderate rain,42.1584,-72.3287,Wedgewood Motel
329,Soyo,AO,78.04,overcast clouds,-6.1349,12.3689,Hotel Mpampa
332,Miri,MY,75.94,overcast clouds,4.4148,114.0089,"Mega Hotel, Miri"
334,Chabahar,IR,69.08,clear sky,25.2919,60.643,هتل گدروشیا
335,Daru,PG,77.67,overcast clouds,-9.0763,143.2092,Daru Lodge
336,Rio Gallegos,AR,53.65,scattered clouds,-51.6226,-69.2181,Hotel Santa Cruz
337,Altamira,BR,75.2,overcast clouds,-3.2033,-52.2064,Requinte Hotel
338,Comodoro Rivadavia,AR,64.26,scattered clouds,-45.8667,-67.5,Austral Hotel
340,Flinders,AU,65.8,light rain,-34.5833,150.8552,Shellharbour Resort & Conference Centre
341,Babati,TZ,62.11,light rain,-4.2167,35.75,White Rose Lodge
343,Willowmore,ZA,62.22,scattered clouds,-33.2926,23.4895,Jumper's Place
344,Jibuti,DJ,69.22,clear sky,11.5,42.5,Orchid Main Camp Goubet
345,Sembe,CG,75.43,broken clouds,1.6481,14.5806,
347,Karratha,AU,81.7,scattered clouds,-20.7377,116.8463,ibis Styles Karratha
349,Namatanai,PG,80.92,light rain,-3.6667,152.4333,Seagulls Inn Namatani
350,Mitu,CO,75.09,overcast clouds,1.1983,-70.1733,
352,The Valley,AI,78.94,scattered clouds,18.217,-63.0578,CeBlue Villas & Beach Resort
353,Constantine,DZ,40.41,clear sky,36.365,6.6147,Grand Hotel Cirta
355,Waipawa,NZ,70.43,broken clouds,-41.4122,175.5153,Tora Coastal Walk
356,Cuamba,MZ,70.68,few clouds,-14.8031,36.5372,Hotel Vision
360,Byron Bay,AU,76.05,light rain,-28.65,153.6167,Backpackers Inn
361,Moerai,PF,78.96,scattered clouds,-22.4333,-151.3333,Le Manotel
362,Santa Rosa,PH,75.11,broken clouds,14.3122,121.1114,Erlyn’s Sta Rosa City Home
363,Middle Island,US,46.51,mist,40.8843,-72.9373,
366,Mareeba,AU,74.12,light rain,-17.0,145.4333,Trinity Plains Tourist Park
367,Uarini,BR,75.15,heavy intensity rain,-2.99,-65.1083,
369,Margate,GB,48.96,overcast clouds,51.3813,1.3862,Premier Inn Margate hotel
371,Khonsa,IN,46.58,broken clouds,27.0167,95.5667,
374,Mayo,US,55.51,mist,38.8876,-76.5119,Resorts Resource Group International
375,Constitucion,CL,63.66,broken clouds,-35.3333,-72.4167,Hotel Boutique Las Azucenas
377,Dieppe,FR,46.18,overcast clouds,49.75,1.1667,LA LONGERE DES NUITS DE VARENNE
378,Langenau,DE,44.91,overcast clouds,48.4962,10.1185,Gasthof Zum Bad
379,Imbituba,BR,80.49,scattered clouds,-28.24,-48.6703,Praia Hotel Imbituba
380,Quelimane,MZ,74.59,few clouds,-17.8786,36.8883,Hotel Flamingo
383,Buala,SB,79.93,moderate rain,-8.145,159.5921,Maringe Lagoon Lodge
384,Rocha,UY,73.18,light rain,-34.4833,-54.3333,Hotel Arrarte
385,Huarmey,PE,75.54,scattered clouds,-10.0681,-78.1522,Hotel Miramar
387,Fortuna,US,58.19,clear sky,40.5982,-124.1573,Super 8 by Wyndham Fortuna
390,Kaeo,NZ,75.33,broken clouds,-35.1,173.7833,Bushido Lodge
391,Teahupoo,PF,82.36,few clouds,-17.8333,-149.2667,Vanira Lodge
392,Lima,PE,75.38,clear sky,-12.0432,-77.0282,Gran Hotel Bolivar Lima
394,Souillac,MU,80.37,light rain,-20.5167,57.5167,Shanti Maurice Resort & Spa
395,Baculin,PH,74.52,overcast clouds,7.4525,126.5842,Baculin Cove Beach Resort
398,Santa Maria,BR,83.8,overcast clouds,-29.6842,-53.8069,Hotel Morotin
400,Luwingu,ZM,63.54,light rain,-10.2621,29.9271,"MR.C SIMON CHABALA (Maje, Home Place)"
401,Orange Cove,US,64.29,scattered clouds,36.6244,-119.3137,
402,Victoria,HK,54.32,overcast clouds,22.2855,114.1577,Mini Hotel Central
403,Carutapera,BR,76.19,overcast clouds,-1.195,-46.02,Lidera
406,Ballina,AU,67.78,light rain,-28.8667,153.5667,Ramada Hotel & Suites by Wyndham Ballina Byron
407,Kabo,CF,74.08,broken clouds,7.6994,18.629,
408,Nioro,GM,81.09,clear sky,13.35,-15.75,
410,Doha,QA,62.91,clear sky,25.2867,51.5333,Movenpick Hotel Doha
411,Polis,CY,51.62,overcast clouds,35.0367,32.4264,Marion
412,Morristown,US,57.9,scattered clouds,36.214,-83.2949,Days Inn by Wyndham Morristown
413,Bosaso,SO,72.61,clear sky,11.2842,49.1816,Red Sea Hotel
414,Puerto Escondido,MX,85.03,clear sky,15.85,-97.0667,Aldea del Bazar Hotel and Spa
416,Ahipara,NZ,74.26,overcast clouds,-35.1667,173.1667,Ahipara Holiday Park
417,Sao Sebastiao,BR,75.81,overcast clouds,-23.76,-45.4097,Hotel Recanto dos Pássaros
419,Port Augusta,AU,65.71,clear sky,-32.5,137.7667,Majestic Oasis Apartments
420,Ancud,CL,65.23,light rain,-41.8697,-73.8203,Hotel Arena Gruesa
421,Vredendal,ZA,64.6,clear sky,-31.6683,18.5012,Tharrakamma Guest House
423,Benguela,AO,75.33,broken clouds,-12.5763,13.4055,Hotel Praia Morena
425,Araceli,PH,79.7,scattered clouds,10.5529,119.9913,JBryan Traveler's Inn
426,Coos Bay,US,55.85,clear sky,43.3665,-124.2179,Best Western Holiday Hotel
427,Port-Gentil,GA,80.17,scattered clouds,-0.7193,8.7815,Fengshui Residence
428,Pacific Grove,US,66.29,clear sky,36.6177,-121.9166,Lovers Point Inn
429,Jiazi,CN,54.03,overcast clouds,22.8779,116.067,Hotel Jin Hao
430,Port Hardy,CA,43.75,light intensity drizzle,50.6996,-127.4199,Airport Inn-Port Hardy
431,Mamedkala,RU,43.74,overcast clouds,42.1677,48.1199,Igry Frifayer
433,Barahona,DO,82.22,scattered clouds,18.2085,-71.1008,Hotel Caribe
435,Kavieng,PG,81.46,light rain,-2.5744,150.7967,Nusa Island Retreat
436,Muli,MV,81.09,broken clouds,2.9167,73.5667,Medhufushi Island Resort
438,Ndago,TZ,62.08,light rain,-4.6,34.35,
439,Libertador General San Martin,AR,75.36,overcast clouds,-23.8064,-64.7876,Posada del Sol
440,Takoradi,GH,80.24,clear sky,4.8845,-1.7554,Raybow International Hotel
441,Cristalina,BR,67.23,broken clouds,-16.7686,-47.6136,HOTEL TOPAZIO
442,Tautira,PF,87.82,few clouds,-17.7333,-149.15,Pension Oaoa
443,Plouzane,FR,46.72,overcast clouds,48.3833,-4.6167,Lymina
445,San Cristobal,VE,78.98,broken clouds,7.7669,-72.225,Posada Villaven C.A.
446,Ipameri,BR,73.17,broken clouds,-17.7219,-48.1597,Real Hotel
449,Sechura,PE,80.67,scattered clouds,-5.5569,-80.8222,Hospedaje Costa Bella
450,Prinos,GR,43.72,clear sky,40.75,24.5833,Ξενοδοχείο Βλαχογιάννης
452,Camocim,BR,80.53,overcast clouds,-2.9022,-40.8411,Ilha Praia Hotel
454,Bellinzona,CH,46.35,overcast clouds,46.1928,9.017,Albergo-Ristorante Croce Federale
455,Ribeirao Branco,BR,67.64,broken clouds,-24.2208,-48.7656,Restaurante Hotel Andorinhas
456,Alofi,NU,81.57,light rain,-19.0595,-169.9187,Taloa Heights
460,Sayyan,YE,50.83,clear sky,15.1718,44.3244,ملاطف ابوحورية
461,Banjarmasin,ID,75.34,overcast clouds,-3.3244,114.591,Swiss-Belhotel Borneo Banjarmasin
462,Manakara,MG,75.4,moderate rain,-22.1333,48.0167,La Residence Manakara
463,Balaipungut,ID,75.61,scattered clouds,1.05,101.2833,
464,Racale,IT,42.35,clear sky,39.9631,18.0938,B&B Gallipoli Salento al mare
465,Almeria,ES,50.43,scattered clouds,37.1667,-2.3333,Casa Rural El Laurel
466,Atakpame,TG,77.41,few clouds,7.5333,1.1333,Hôtel sahélien
467,Ishigaki,JP,64.53,broken clouds,24.3448,124.1572,Hotel Peace Land Ishigakijima
468,Grand-Lahou,CI,79.2,clear sky,5.1367,-5.0242,Hotel Beatitude de Grand Lahou
469,Rawson,AR,71.04,scattered clouds,-43.3002,-65.1023,Hosteria Sampedro
472,Kalabagh,PK,48.87,clear sky,32.965,71.557,Paracha nimko shop
476,Asosa,ET,68.68,scattered clouds,10.0667,34.5333,Blendana Hotel Assosa
477,Tahoua,NE,63.45,clear sky,14.8888,5.2692,Bungalows Guesthouse
480,Kaniama,CD,65.05,light rain,-7.5667,24.1833,
481,Ngunguru,NZ,75.16,broken clouds,-35.6167,174.5,Pacific Rendezvous Motel Resort
483,Hirado,JP,40.39,overcast clouds,33.3597,129.5531,Samson Hotel
484,Galle,LK,73.51,clear sky,6.0367,80.217,Amangalla
485,Impfondo,CG,72.54,broken clouds,1.6381,18.0667,Auberge La Place de Jules
486,Natal,BR,82.62,few clouds,-5.795,-35.2094,Villa Park Hotel | Natal
487,Hargeysa,SO,57.13,clear sky,9.56,44.065,City Center Hotel
494,Cascais,PT,56.52,overcast clouds,38.6979,-9.4215,Hotel Vila Galé Cascais
495,Mehran,IR,65.68,overcast clouds,33.1222,46.1646,بوتیک زنانه بهار
496,Funchal,PT,68.0,scattered clouds,32.6333,-16.9,Pestana Casino Park
498,Cangucu,BR,75.45,broken clouds,-31.395,-52.6756,Compacto 2D Centro Canela
499,Tolaga Bay,NZ,73.49,clear sky,-38.3667,178.3,Tolaga Bay Motel
500,Vila,PT,45.32,overcast clouds,42.0304,-8.1588,Hotel Castrum Villae by Walk Hotels
501,Nautla,MX,69.75,broken clouds,20.2167,-96.7833,Casa Blanca
502,Dondo,MZ,76.51,clear sky,-19.6094,34.7431,Arco Iris
503,Pombas,CV,69.58,clear sky,17.1503,-25.0201,Paul Paradis
504,Mangan,IN,51.33,light rain,27.5167,88.5333,Hotel Mout View
505,Ambilobe,MG,76.06,overcast clouds,-13.2,49.05,Hôtel & Restaurant DIANA Ambilobe
510,Matara,LK,73.04,clear sky,5.9485,80.5353,Amaloh Boutique Resort
511,Pativilca,PE,74.03,scattered clouds,-10.7,-77.7833,HOSTAL PATIVILCA
515,Pangkalanbuun,ID,72.79,overcast clouds,-2.6833,111.6167,Grand Kecubung Hotel
516,Agar,IN,53.65,clear sky,23.7,76.0167,Bherav Mandir
517,Guarapari,BR,77.9,overcast clouds,-20.6667,-40.4975,Hotel Porto do Sol
520,Soc Trang,VN,75.16,few clouds,9.6033,105.98,Phu Quy Hotel
522,Eltham,NZ,72.68,scattered clouds,-39.4292,174.3,Stonewall House Bed & Breakfast
523,Bairiki,KI,86.0,light rain,1.3292,172.9752,Tarawa Boutique Hotel
524,Alyangula,AU,81.27,heavy intensity rain,-13.8483,136.4192,Groote Eylandt Lodge
525,Ntungamo,UG,69.49,overcast clouds,-0.8833,29.65,The Crested Crane Bwindi Hotel
526,Tam Ky,VN,67.98,overcast clouds,15.5667,108.4833,Khách Sạn Đông Á
527,Sao Gotardo,BR,67.62,moderate rain,-19.3111,-46.0489,HOTEL BOMTEMPO
529,Manado,ID,75.97,scattered clouds,1.487,124.8455,Aryaduta Hotel
530,Kingston,JM,81.55,few clouds,17.997,-76.7936,The Jamaica Pegasus Hotel
531,Pell City,US,67.68,mist,33.5862,-86.2861,Hampton Inn Pell City
535,Ures,MX,65.12,clear sky,29.4333,-110.4,Hacienda Quinta Napoles
536,Alice Springs,AU,62.15,broken clouds,-23.7,133.8833,Desert Palms Alice Springs
542,Samarai,PG,81.34,overcast clouds,-10.6167,150.6667,Nuli Sapi
543,Sumbe,AO,75.36,overcast clouds,-11.2061,13.8437,Hotel Ritz Sumbe
544,Nkoteng,CM,74.98,overcast clouds,4.5167,12.0333,Résidence OOCLO-Cannelle
545,Shimoda,JP,43.59,overcast clouds,34.6667,138.95,Shimoda Tokyu Hotel
548,Road Town,VG,78.89,scattered clouds,18.4167,-64.6167,"ZINGARA 76ft Catamaran, full crew-all included"
549,Gurupi,BR,77.77,broken clouds,-11.7292,-49.0686,Via Norte Hotel
551,Gamba,GA,74.88,overcast clouds,-2.65,10.0,
552,Durban,ZA,76.93,overcast clouds,-29.8579,31.0292,Hilton Durban
554,Marsa Matruh,EG,55.17,scattered clouds,31.3525,27.2453,Beau Site
555,Mackay,AU,76.68,moderate rain,-21.15,149.2,International Lodge Motel
557,Ikirun,NG,76.23,broken clouds,7.9167,4.6667,Turode Hotel
558,Xacmaz,AZ,41.88,broken clouds,41.4635,48.806,SAHİL HOTEL
559,Chiredzi,ZW,76.1,clear sky,-21.05,31.6667,Clevers Hotel Chiredzi
560,Keti Bandar,PK,68.27,clear sky,24.1447,67.4497,Haji laloo memon house
561,Kuala Terengganu,MY,80.55,scattered clouds,5.3302,103.1408,Hotel Grand Continental Kuala Terengganu (4 Star)
565,Zacualpan,MX,85.62,overcast clouds,21.25,-105.1667,La Colorada B&B
566,Moussoro,TD,64.6,clear sky,13.6408,16.4901,Hôtel Salama
567,Anloga,GH,82.62,clear sky,5.7947,0.8973,Pin Drop Hotel
568,Padang,ID,73.45,overcast clouds,-0.9492,100.3543,Mercure Padang
570,Mayumba,GA,76.39,overcast clouds,-3.432,10.6554,LIKWALE LODGE
572,Aiquile,BO,67.87,light rain,-18.2041,-65.1807,Hotel Santa Ana
573,Wanning,CN,62.94,overcast clouds,18.8003,110.3967,Paradise Hotel
575,Codrington,AU,61.66,overcast clouds,-38.2667,141.9667,Codrington Gardens Bed And Breakfast
576,Sumenep,ID,77.23,overcast clouds,-7.0167,113.8667,OYO 3271 Homestay Pandian
577,General Pico,AR,88.39,clear sky,-35.6566,-63.7568,Euskadi Hotel
578,Ketchikan,US,44.58,moderate rain,55.3422,-131.6461,Snow's Cove Lodge
579,Bantogon,PH,76.71,overcast clouds,6.5333,124.0333,Kalamansig Greenhome
581,Yarim,YE,51.08,clear sky,14.298,44.3779,وليد المسوري ابو اسد
583,Muswellbrook,AU,64.24,overcast clouds,-32.2667,150.9,Wayfarer Motel
584,Iberia,US,46.47,light rain,29.9502,-91.7507,back to back rv park
585,Hualmay,PE,74.68,few clouds,-11.0964,-77.6139,Hotel Villa Kitzia Huacho
586,Oriximina,BR,79.48,overcast clouds,-1.7656,-55.8661,Pousada Tia Amélia
587,Fianarantsoa,MG,64.09,overcast clouds,-21.4333,47.0833,Soratel
588,Saint-Joseph,RE,77.36,very heavy rain,-21.3667,55.6167,"""Plantation Bed and Breakfast"
589,Martinsburg,US,49.46,mist,39.4562,-77.9639,"Holiday Inn Martinsburg, an IHG Hotel"
591,Urucara,BR,77.02,moderate rain,-2.5364,-57.76,Pousada Maria Bonita
592,Nelson Bay,AU,64.29,broken clouds,-32.7167,152.15,Mantra Nelson Bay
594,Alta Floresta,BR,75.63,broken clouds,-9.8756,-56.0861,Floresta Amazonica Hotel
595,Durg,IN,65.53,few clouds,21.1833,81.2833,OYO 37028 Hotel Sheela
596,Quatre Cocos,MU,80.71,moderate rain,-20.2078,57.7625,Sunrise Attitude Hotel
597,Ranong,TH,77.43,scattered clouds,9.9658,98.6348,Tinidee Hotel@Ranong
598,Manali,IN,78.08,clear sky,13.1667,80.2667,Sarathy Lodge
599,Florianopolis,BR,78.26,scattered clouds,-27.6146,-48.5012,Hotel Boutique Quinta das Videiras
602,Faya,SA,57.31,broken clouds,18.3851,42.4509,املاك خالد الشعشوع
604,Batticaloa,LK,74.75,clear sky,7.7102,81.6924,Grand Star Guest House
605,Uthal,PK,64.24,clear sky,25.8072,66.6219,Al-Mustafa Hotel
608,Celestun,MX,84.97,clear sky,20.8667,-90.4,Posada Lilia
609,Kimbe,PG,76.28,overcast clouds,-5.5502,150.1429,Kimbe Bay Hotel
610,Dalbandin,PK,48.16,clear sky,28.8947,64.4101,Gidaan Guest House
612,Los Llanos De Aridane,ES,62.35,clear sky,28.6585,-17.9182,Valle Aridane
613,Olinda,BR,83.93,scattered clouds,-8.0089,-34.8553,Hotel Albergue de Olinda
615,Conceicao Do Araguaia,BR,78.37,clear sky,-8.2578,-49.2647,Tarumã Tropical Hotel
617,Beckley,US,57.09,overcast clouds,37.7782,-81.1882,"Country Inn & Suites by Radisson, Beckley, WV"
618,Manaus,BR,82.9,light rain,-3.1019,-60.025,Manaus Hotéis Millennium
622,Yaan,NG,81.88,scattered clouds,7.3833,8.5667,
625,Alamos,MX,64.72,clear sky,27.0167,-108.9333,Luz del Sol
626,Vanimo,PG,77.76,broken clouds,-2.6741,141.3028,Vahmoneh Lodge Vanimo
627,Koboko,UG,71.82,overcast clouds,3.4136,30.9599,Hotel Diplomat
628,Oildale,US,68.56,clear sky,35.4197,-119.0195,DoubleTree by Hilton Hotel Bakersfield
632,Acarau,BR,80.74,broken clouds,-2.8856,-40.12,castelo pizzaria
633,Isangel,VU,84.31,broken clouds,-19.55,169.2667,Tanna Lodge
637,Shasta Lake,US,66.92,overcast clouds,40.6804,-122.3708,Shasta Dam Motel
638,Soavinandriana,MG,60.42,overcast clouds,-19.1667,46.7333,
639,Jiangyou,CN,40.51,overcast clouds,31.7667,104.7167,Shangping Shuyuan Inn
640,Namibe,AO,73.24,clear sky,-15.1961,12.1522,Hotel Chik Chik Namibe
641,Kuching,MY,75.42,scattered clouds,1.55,110.3333,The Ranee Boutique Suites
642,Itarema,BR,80.44,overcast clouds,-2.9248,-39.9167,"Sea Lounge! Bar, Club & Restaurant"
643,Lujan,AR,78.22,broken clouds,-34.5703,-59.105,Hotel Biarritz
644,Maryville,US,63.73,moderate rain,35.7565,-83.9705,"Holiday Inn Express & Suites Alcoa (Knoxville Airport), an IHG Hotel"
645,George Town,MY,80.89,few clouds,5.4112,100.3354,Cititel Penang
646,Iacu,BR,81.18,overcast clouds,-12.7672,-40.2117,Pousada e Restaurante Portal da Chapada
647,Abeche,TD,66.97,clear sky,13.8292,20.8324,Assaleh Hamdan Haroune
650,Maragogi,BR,79.93,overcast clouds,-9.0122,-35.2225,Salinas do Maragogi All Inclusive Resort
651,Bedesa,ET,59.95,scattered clouds,8.9,40.7833,
652,Aswan,EG,55.33,clear sky,24.0934,32.907,Nuba Nile
654,Hambantota,LK,73.49,clear sky,6.1241,81.1185,Bungalow 63
655,Bantry,IE,44.08,light rain,51.6833,-9.45,The Maritime Hotel
659,Parole,US,54.25,mist,38.9796,-76.5305,DoubleTree by Hilton Hotel Annapolis
661,Sao Joao Da Barra,BR,74.71,overcast clouds,-21.6403,-41.0511,Pousada Porto De Canoas
662,Dhidhdhoo,MV,80.08,few clouds,6.8833,73.1,Dhidhoo beach
663,Qeshm,IR,60.69,clear sky,26.9581,56.2719,Qeshm Kavan Hotel
